{"id":"ecd8399c-f381-beae-9a1c-afec249d4632","meta":{"profile":["http://hl7.org/fhir/us/core/StructureDefinition/us-core-location"]},"status":"active","name":"PCP170967","telecom":[{"system":"phone","value":"413-221-0546"}],"address":{"line":["1111 ELM ST"],"city":"WEST SPRINGFIELD","state":"MA","postalCode":"01089-1540","country":"US"},"position":{"longitude":-72.649734,"latitude":42.125451},"managingOrganization":{"reference":"Organization/c7459800-e42b-3144-a934-59585c9eacff","display":"PCP170967"},"resourceType":"Location"}
{"id":"70b2a52f-71ba-6ffe-9050-5daee15f4d88","meta":{"profile":["http://hl7.org/fhir/us/core/StructureDefinition/us-core-location"]},"status":"active","name":"HOLYOKE MEDICAL CENTER","telecom":[{"system":"phone","value":"4135342500"}],"address":{"line":["575 BEECH STREET"],"city":"HOLYOKE","state":"MA","postalCode":"01040","country":"US"},"position":{"longitude":-72.642448,"latitude":42.211656},"managingOrganization":{"reference":"Organization/5d4b9df1-93ae-3bc9-b680-03249990e558","display":"HOLYOKE MEDICAL CENTER"},"resourceType":"Location"}
{"id":"4c34c0db-7434-8c8f-1936-30dd023babc2","meta":{"profile":["http://hl7.org/fhir/us/core/StructureDefinition/us-core-location"]},"status":"active","name":"RIVER BEND MEDICAL GROUP - CHICOPEE OFFICE - URGENT CARE","telecom":[{"system":"phone","value":"413-594-3111"}],"address":{"line":["444 MONTGOMERY STREET"],"city":"CHICOPEE","state":"MA","postalCode":"1020","country":"US"},"position":{"longitude":-72.5849672,"latitude":42.1718584},"managingOrganization":{"reference":"Organization/a9afd4c9-8443-3b5a-a486-07c3bb109b3f","display":"RIVER BEND MEDICAL GROUP - CHICOPEE OFFICE - URGENT CARE"},"resourceType":"Location"}
{"id":"690866aa-d2fd-8074-b448-3b7b0f1c84ad","meta":{"profile":["http://hl7.org/fhir/us/core/StructureDefinition/us-core-location"]},"status":"active","name":"PCP87052","telecom":[{"system":"phone","value":"(555) 555-5555"}],"address":{"line":["1540 BRIDGE ST"],"city":"DRACUT","state":"MA","postalCode":"01826-2611","country":"US"},"position":{"longitude":-71.30068,"latitude":42.679722999999996},"managingOrganization":{"reference":"Organization/56090ab7-1f97-37ff-a434-194f9c6e5510","display":"PCP87052"},"resourceType":"Location"}
{"id":"8944e7cf-1482-b552-11a3-d3063d712d51","meta":{"profile":["http://hl7.org/fhir/us/core/StructureDefinition/us-core-location"]},"status":"active","name":"LOWELL GENERAL HOSPITAL","telecom":[{"system":"phone","value":"9789376000"}],"address":{"line":["295 VARNUM AVENUE"],"city":"LOWELL","state":"MA","postalCode":"01854","country":"US"},"position":{"longitude":-71.32210699999997,"latitude":42.638893},"managingOrganization":{"reference":"Organization/b0e04623-b02c-3f8b-92ea-943fc4db60da","display":"LOWELL GENERAL HOSPITAL"},"resourceType":"Location"}
